[
  {
    "name": "Tacos el Forastero",
    "street": "655 S. Ventura Rd",
    "city": "Oxnard",
    "state": "CA",
    "zip": "93030",
    "url": "https://www.facebook.com/pages/Tacos-El-Forasteros-on-Ventura-Rd-7th-St/1605986996347641",
    "pos": {"lat":34.195430,"lng":-119.195230},
    "formattedAddress": [
                        "655 S. Ventura Rd",
                        ", Oxnard, CA 93030"
                        ]
  },
  {
    "name": "Tacos Arandas",
    "street": "136 W 1st St",
    "city": "Oxnard",
    "state": "CA",
    "zip": "93030",
    "url": "https://www.facebook.com/pages/Tacos-Arandas/134869146568848",
    "pos": {"lat":34.202570,"lon":-119.177650},
    "formattedAddress": [
                 "136 W 1st St ",
                 "Oxnard, CA 93030"
               ]
  },
  {
    "name": "Tacos El Caporal",
    "street": "2875 E Ventura Blvd",
    "city": "Oxnard",
    "state": "CA",
    "zip": "93036",
    "url": "https://www.facebook.com/tacoselcaporal805/",
    "pos": {"lat":34.223020,"lng":-119.134650},
    "formattedAddress": [
                 "2875 E Ventura Blvd ",
                 "Oxnard, CA 93036"
               ]
  },
  {
    "name": "Tacos Jerez",
    "street": "2-198 W Pleasant Valley Rd",
    "city": "Oxnard",
    "state": "CA",
    "zip": "93033",
    "url": "https://www.facebook.com/Juareztacos2018/",
    "pos": {"lat":34.202570,"lng":-119.177650},
    "formattedAddress": [
                 "2-198 W Pleasant Valley Rd ",
                 "Oxnard, CA 93036"
               ]
  },
  {
    "name": "Taco De Mexico",
    "street": "3101 Saviers Rd",
    "city": "Oxnard",
    "state": "CA",
    "zip": "93036",
    "url": "https://www.facebook.com/eltacolocodeoxnard/",
    "pos": {"lat":34.171520,"lng":-119.178233},
    "formattedAddress": [
                 "3101 Saviers Rd ",
                 "Oxnard, CA 93036"
               ]
  },
  {
    "name": "Tacos El Trompito",
    "street": "2805 E Vineyard St",
    "city": "Oxnard",
    "state": "CA",
    "zip": "93036",
    "url": "https://www.facebook.com/TACOS-El-Trompito-757702580983538/",
    "pos": {"lat":34.18184,"lng":-119.172521},
    "formattedAddress": [
                 "2805 E Vineyard St ",
                 "Oxnard, CA 93036"
               ]
  }
]
